Long,Lat,Value,Name
104.257,21.192,8.233,che1_CSES
103.181,26.108,8.2,YNDC_Wang
102.501,23.704,4.2,HB07_Wang
104.031,21.473,7.957,tpu1_CSES
100.307,30.925,18.2,H063_Wang
104.536,30.374,7.5,H071_Wang
103.232,22.786,8,YNJP_Wang
103.8306,31.6709,10.413,H025_Wuww
100.218,29.992,17,SCLT_Wang
104.064,21.203,7.31,lot1_CSES
98.595,29.691,16.8,MKZ1_Wang
101.675,23.416,4.4,YNMJ_Wang
100.881,24.437,2.7,YNJD_Wang
102.655,29.348,8.6,H077_Wang
103.121,28.312,6.9,H089_Wang
102.051,29.731,14.09,ZD15_Zhuy
